[
{"district": "JHAPA", "bounds": {"northeast":{"lat": 26.805017,"lng": 88.192718}, "southwest":{"lat": 26.36107,"lng": 87.641868}}},
{"district": "ILAM", "bounds": {"northeast":{"lat": 27.105968,"lng": 88.184761}, "southwest":{"lat": 26.657871,"lng": 87.597702}}},
{"district": "PANCHTHAR", "bounds": {"northeast":{"lat": 27.435216,"lng": 88.076019}, "southwest":{"lat": 26.859651,"lng": 87.495468}}},
{"district": "TAPLEJUNG", "bounds": {"northeast":{"lat": 27.949855,"lng": 88.204673}, "southwest":{"lat": 27.268484,"lng": 87.448143}}},
{"district": "MORANG", "bounds": {"northeast":{"lat": 26.885746,"lng": 87.690147}, "southwest":{"lat": 26.348379,"lng": 87.241828}}},
{"district": "SUNSARI", "bounds": {"northeast":{"lat": 26.87951,"lng": 87.3554}, "southwest":{"lat": 26.402687,"lng": 86.913536}}},
{"district": "BHOJPUR", "bounds": {"northeast":{"lat": 27.464042,"lng": 87.276397}, "southwest":{"lat": 26.887607,"lng": 86.902366}}},
{"district": "DHANKUTA", "bounds": {"northeast":{"lat": 27.193054,"lng": 87.590927}, "southwest":{"lat": 26.845199,"lng": 87.150344}}},
{"district": "TEHRATHUM", "bounds": {"northeast":{"lat": 27.297399,"lng": 87.751762}, "southwest":{"lat": 26.967058,"lng": 87.396377}}},
{"district": "SANKHUWASABHA", "bounds": {"northeast":{"lat": 27.956737,"lng": 87.67247}, "southwest":{"lat": 27.13779,"lng": 86.946006}}},
{"district": "SAPTARI", "bounds": {"northeast":{"lat": 26.887893,"lng": 87.027648}, "southwest":{"lat": 26.423133,"lng": 86.482917}}},
{"district": "SIRAHA", "bounds": {"northeast":{"lat": 26.934278,"lng": 86.539093}, "southwest":{"lat": 26.548274,"lng": 86.13327}}},
{"district": "UDAYAPUR", "bounds": {"northeast":{"lat": 27.181722,"lng": 87.170555}, "southwest":{"lat": 26.68592,"lng": 86.27787}}},
{"district": "KHOTANG", "bounds": {"northeast":{"lat": 27.440692,"lng": 86.9878}, "southwest":{"lat": 26.872795,"lng": 86.428703}}},
{"district": "OKHALDHUNGA", "bounds": {"northeast":{"lat": 27.527318,"lng": 86.687339}, "southwest":{"lat": 27.148286,"lng": 86.205444}}},
{"district": "SOLUKHUMBU", "bounds": {"northeast":{"lat": 28.113311,"lng": 87.013587}, "southwest":{"lat": 27.340408,"lng": 86.358657}}},
{"district": "DHANUSA", "bounds": {"northeast":{"lat": 27.092584,"lng": 86.263481}, "southwest":{"lat": 26.568801,"lng": 85.850036}}},
{"district": "MAHOTTARI", "bounds": {"northeast":{"lat": 27.167493,"lng": 85.948173}, "southwest":{"lat": 26.601934,"lng": 85.681091}}},
{"district": "SARLAHI", "bounds": {"northeast":{"lat": 27.193017,"lng": 85.819145}, "southwest":{"lat": 26.74382,"lng": 85.329284}}},
{"district": "SINDHULI", "bounds": {"northeast":{"lat": 27.450504,"lng": 86.389778}, "southwest":{"lat": 26.916873,"lng": 85.425056}}},
{"district": "RAMECHHAP", "bounds": {"northeast":{"lat": 27.831417,"lng": 86.574531}, "southwest":{"lat": 27.243652,"lng": 85.802017}}},
{"district": "DOLAKHA", "bounds": {"northeast":{"lat": 28.172111,"lng": 86.561546}, "southwest":{"lat": 27.474243,"lng": 85.851875}}},
{"district": "BHAKTAPUR", "bounds": {"northeast":{"lat": 27.728116,"lng": 85.528541}, "southwest":{"lat": 27.620319,"lng": 85.358215}}},
{"district": "DHADING", "bounds": {"northeast":{"lat": 28.344396,"lng": 85.271087}, "southwest":{"lat": 27.667741,"lng": 84.65493}}},
{"district": "KATHMANDU", "bounds": {"northeast":{"lat": 27.81681,"lng": 85.524353}, "southwest":{"lat": 27.572824,"lng": 85.189567}}},
{"district": "KAVREPALANCHOWK", "bounds": {"northeast":{"lat": 27.786121,"lng": 85.877822}, "southwest":{"lat": 27.335929,"lng": 85.391723}}},
{"district": "LALITPUR", "bounds": {"northeast":{"lat": 27.690616,"lng": 85.444503}, "southwest":{"lat": 27.40303,"lng": 85.237678}}},
{"district": "NUWAKOT", "bounds": {"northeast":{"lat": 28.0858,"lng": 85.495956}, "southwest":{"lat": 27.760828,"lng": 84.98973}}},
{"district": "RASUWA", "bounds": {"northeast":{"lat": 28.385269,"lng": 85.795837}, "southwest":{"lat": 27.96216,"lng": 85.121887}}},
{"district": "SINDHUPALCHOK", "bounds": {"northeast":{"lat": 28.199625,"lng": 86.063278}, "southwest":{"lat": 27.612302,"lng": 85.443901}}},
{"district": "BARA", "bounds": {"northeast":{"lat": 27.365711,"lng": 85.268264}, "southwest":{"lat": 26.849594,"lng": 84.874168}}},
{"district": "PARSA", "bounds": {"northeast":{"lat": 27.462196,"lng": 84.977104}, "southwest":{"lat": 26.980493,"lng": 84.480102}}},
{"district": "RAUTAHAT", "bounds": {"northeast":{"lat": 27.230436,"lng": 85.505867}, "southwest":{"lat": 26.745525,"lng": 85.167442}}},
{"district": "CHITWAN", "bounds": {"northeast":{"lat": 27.877817,"lng": 84.797851}, "southwest":{"lat": 27.354125,"lng": 83.920516}}},
{"district": "MAKWANPUR", "bounds": {"northeast":{"lat": 27.709743,"lng": 85.512016}, "southwest":{"lat": 27.1623,"lng": 84.683174}}},
{"district": "GORKHA", "bounds": {"northeast":{"lat": 28.751855,"lng": 85.19754}, "southwest":{"lat": 27.796108,"lng": 84.424369}}},
{"district": "KASKI", "bounds": {"northeast":{"lat": 28.615503,"lng": 84.280487}, "southwest":{"lat": 28.083997,"lng": 83.702751}}},
{"district": "LAMJUNG", "bounds": {"northeast":{"lat": 28.509344,"lng": 84.696578}, "southwest":{"lat": 28.057563,"lng": 84.192405}}},
{"district": "SYANGJA", "bounds": {"northeast":{"lat": 28.228261,"lng": 84.033256}, "southwest":{"lat": 27.86783,"lng": 83.442054}}},
{"district": "TANAHU", "bounds": {"northeast":{"lat": 28.130596,"lng": 84.563957}, "southwest":{"lat": 27.741764,"lng": 83.941673}}},
{"district": "MANANG", "bounds": {"northeast":{"lat": 28.898839,"lng": 84.573829}, "southwest":{"lat": 28.456933,"lng": 83.793327}}},
{"district": "KAPILVASTU", "bounds": {"northeast":{"lat": 27.835849,"lng": 83.235389}, "southwest":{"lat": 27.417114,"lng": 82.700668}}},
{"district": "NAWALPUR", "bounds": {"northeast":{"lat": 27.870992,"lng": 84.431526}, "southwest":{"lat": 27.540159,"lng": 83.723373}}},
{"district": "PARASI", "bounds": {"northeast":{"lat": 27.703227,"lng": 83.971977}, "southwest":{"lat": 27.347908,"lng": 83.588211}}},
{"district": "RUPANDEHI", "bounds": {"northeast":{"lat": 27.790304,"lng": 83.659896}, "southwest":{"lat": 27.33312,"lng": 83.208633}}},
{"district": "ARGHAKHANCHI", "bounds": {"northeast":{"lat": 28.114124,"lng": 83.336212}, "southwest":{"lat": 27.784629,"lng": 82.752326}}},
{"district": "GULMI", "bounds": {"northeast":{"lat": 28.277605,"lng": 83.610824}, "southwest":{"lat": 27.922779,"lng": 83.014144}}},
{"district": "PALPA", "bounds": {"northeast":{"lat": 27.955789,"lng": 84.031257}, "southwest":{"lat": 27.681598,"lng": 83.234893}}},
{"district": "BAGLUNG", "bounds": {"northeast":{"lat": 28.633155,"lng": 83.677391}, "southwest":{"lat": 28.077978,"lng": 82.879951}}},
{"district": "MYAGDI", "bounds": {"northeast":{"lat": 28.791769,"lng": 83.875267}, "southwest":{"lat": 28.298294,"lng": 83.104049}}},
{"district": "PARBAT", "bounds": {"northeast":{"lat": 28.400564,"lng": 83.82685}, "southwest":{"lat": 27.998947,"lng": 83.566246}}},
{"district": "MUSTANG", "bounds": {"northeast":{"lat": 29.330982,"lng": 84.254264}, "southwest":{"lat": 28.573007,"lng": 83.484405}}},
{"district": "DANG", "bounds": {"northeast":{"lat": 28.257242,"lng": 82.881278}, "southwest":{"lat": 27.678155,"lng": 82.013931}}},
{"district": "PYUTHAN", "bounds": {"northeast":{"lat": 28.363536,"lng": 83.100845}, "southwest":{"lat": 27.879501,"lng": 82.599838}}},
{"district": "ROLPA", "bounds": {"northeast":{"lat": 28.556558,"lng": 82.958518}, "southwest":{"lat": 28.09626,"lng": 82.351264}}},
{"district": "EASTERN RUKUM", "bounds": {"northeast":{"lat": 28.869631,"lng": 83.151885}, "southwest":{"lat": 28.475135,"lng": 82.440032}}},
{"district": "WESTERN RUKUM", "bounds": {"northeast":{"lat": 28.9874,"lng": 82.70874}, "southwest":{"lat": 28.520479,"lng": 82.186515}}},
{"district": "SALYAN", "bounds": {"northeast":{"lat": 28.641935,"lng": 82.421066}, "southwest":{"lat": 28.158599,"lng": 81.74694}}},
{"district": "DOLPA", "bounds": {"northeast":{"lat": 29.70421,"lng": 83.682723}, "southwest":{"lat": 28.72126,"lng": 82.3964}}},
{"district": "HUMLA", "bounds": {"northeast":{"lat": 30.445806,"lng": 82.501426}, "southwest":{"lat": 29.603149,"lng": 81.257461}}},
{"district": "JUMLA", "bounds": {"northeast":{"lat": 29.508756,"lng": 82.590629}, "southwest":{"lat": 28.97179,"lng": 81.837783}}},
{"district": "KALIKOT", "bounds": {"northeast":{"lat": 29.460638,"lng": 82.019447}, "southwest":{"lat": 28.968685,"lng": 81.469581}}},
{"district": "MUGU", "bounds": {"northeast":{"lat": 29.969758,"lng": 82.830055}, "southwest":{"lat": 29.38799,"lng": 81.776687}}},
{"district": "BANKE", "bounds": {"northeast":{"lat": 28.330904,"lng": 82.197128}, "southwest":{"lat": 27.855039,"lng": 81.501396}}},
{"district": "BARDIYA", "bounds": {"northeast":{"lat": 28.67032,"lng": 81.767143}, "southwest":{"lat": 28.068948,"lng": 81.060798}}},
{"district": "SURKHET", "bounds": {"northeast":{"lat": 28.974439,"lng": 82.036994}, "southwest":{"lat": 28.324283,"lng": 80.984329}}},
{"district": "DAILEKH", "bounds": {"northeast":{"lat": 29.133077,"lng": 81.926422}, "southwest":{"lat": 28.633207,"lng": 81.413543}}},
{"district": "JAJARKOT", "bounds": {"northeast":{"lat": 29.124349,"lng": 82.576713}, "southwest":{"lat": 28.61214,"lng": 81.820274}}},
{"district": "KAILALI", "bounds": {"northeast":{"lat": 29.079399,"lng": 81.291435}, "southwest":{"lat": 28.397205,"lng": 80.496238}}},
{"district": "ACHHAM", "bounds": {"northeast":{"lat": 29.390365,"lng": 81.584297}, "southwest":{"lat": 28.745262,"lng": 81.031303}}},
{"district": "DOTI", "bounds": {"northeast":{"lat": 29.442464,"lng": 81.155654}, "southwest":{"lat": 28.928836,"lng": 80.527481}}},
{"district": "BAJHANG", "bounds": {"northeast":{"lat": 30.055387,"lng": 81.565139}, "southwest":{"lat": 29.385,"lng": 80.743751}}},
{"district": "BAJURA", "bounds": {"northeast":{"lat": 29.949802,"lng": 81.808723}, "southwest":{"lat": 29.270442,"lng": 81.176078}}},
{"district": "KANCHANPUR", "bounds": {"northeast":{"lat": 29.108903,"lng": 80.560798}, "southwest":{"lat": 28.552654,"lng": 80.050926}}},
{"district": "DADELDHURA", "bounds": {"northeast":{"lat": 29.423517,"lng": 80.786155}, "southwest":{"lat": 28.994321,"lng": 80.154586}}},
{"district": "BAITADI", "bounds": {"northeast":{"lat": 29.706092,"lng": 80.909927}, "southwest":{"lat": 29.307676,"lng": 80.242652}}},
{"district": "DARCHULA", "bounds": {"northeast":{"lat": 30.245025,"lng": 81.111267}, "southwest":{"lat": 29.603202,"lng": 80.369667 }}}
]
